Name,Address,Phone,Latitude,Longitude
Agoura Hills,"5115 Clareton Dr UNIT 150, Agoura Hills, CA 91301",(818) 361-5437,34.1361,-118.7615
Arcadia,"16 E Huntington Dr, Arcadia, CA 91006",(818) 361-5437,34.1397,-118.0353
Beverly Hills,"8733 Beverly Blvd # 200, West Hollywood, CA 90048",(818) 361-5437,34.0836,-118.3762
Camarillo,"2486 Ponderosa Dr N, Suite D-211, Camarillo, CA 93010",(805) 484-2818,34.2308,-119.0507
Canyon Country,"20655 Soledad Canyon Rd Suite 25, Canyon Country, CA 91351",(661) 251-8400,34.4237,-118.4873
Culver City,"3831 Hughes Ave #602, Culver City, CA 90232",(310) 558-8895,34.0211,-118.3965
Downey,"8201 4th St, Downey, CA 90241",(562) 904-2821,33.9401,-118.1332
Glendale,"1530 E Chevy Chase Dr Ste 202, Glendale, CA 91206",(818) 361-5437,34.1425,-118.2551
Hollywood,"5255 W Sunset Blvd, Los Angeles, CA 90027",(818) 361-5437,34.0983,-118.308
La Cañada,"1021 Foothill Blvd, La Canada Flintridge, CA 91011",(818) 361-5437,34.2064,-118.2001
Mission Hills,"10200 Sepulveda Blvd #220, Mission Hills, CA 91345",(818) 365-7783,34.2695,-118.4595
Northridge,"8628 Reseda Blvd, Northridge, CA 91324",(818) 280-4268,34.2381,-118.5364
Pasadena,"504 S Sierra Madre Blvd, Pasadena, CA 91107",(818) 361-5437,34.1478,-118.1445
Pico Rivera,"8337 Telegraph Rd #119, Pico Rivera, CA 90660",(562) 776-3444,33.9836,-118.0967
San Fernando,"777 Truman St. Suite 105, San Fernando, CA 91340",(818) 361-5437,34.2817,-118.4392
Santa Monica,"2221 Lincoln Blvd #200, Santa Monica, CA 90405",(310) 829-3311,34.0089,-118.4649
San Pedro,"887 W 9th St, San Pedro, CA 90731",(818) 361-5437,33.7361,-118.2922
Tarzana,"18372 Clark St #226, Tarzana, CA 91356",(818) 708-8044,34.173,-118.5537
Torrance,"3524 Torrance Blvd Suite 101, Torrance, CA 90503",(818) 361-5437,33.8358,-118.3406
Valencia,"24330 McBean Pkwy, Valencia, CA 91355",(818) 361-5437,34.4211,-118.5542
Van Nuys,"14426 Gilmore St Suite B, Van Nuys, CA 91401",(818) 361-5437,34.1866,-118.4487
West Hills,"22736 Vanowen St #300, West Hills, CA 91307",(818) 361-5437,34.2011,-118.6428
Whittier,"13470 Telegraph Rd, Whittier, CA 90605",(818) 361-5437,33.9792,-118.0328
La Mirada,"12675 La Mirada Blvd, #200, La Mirada, CA 90638",(818) 361-5437,33.9172,-118.012
